[{"organisation_name":"Autism Association of WA","category":"Disability & NDIS Services","suburb":"Leederville","postcode":"6007","phone":"(08) 9489 8900","public_email":"info@autism.org.au","website_url":"https://www.autism.org.au","workshop_relevance":"peak autism body for WA; key partner for autism workshop promotion and referrals","lat":-31.93885,"lon":115.83655},{"organisation_name":"Therapy Focus","category":"Allied Health (OT, Speech, Psych)","suburb":"Bentley","postcode":"6102","phone":"(08) 9370 6200","public_email":"info@therapyfocus.org.au","website_url":"https://www.therapyfocus.org.au","workshop_relevance":"provides OT and allied health; strong connection to autism families across Perth metro","lat":-32.0011,"lon":115.917275},{"organisation_name":"Rocky Bay","category":"Disability & NDIS Services","suburb":"Mosman Park","postcode":"6012","phone":"(08) 9383 5111","public_email":"contact@rockybay.org.au","website_url":"https://www.rockybay.org.au","workshop_relevance":"major NDIS disability service provider with broad reach across WA; key referral partner","lat":-32.0054,"lon":115.7638},{"organisation_name":"Activ Foundation","category":"Disability & NDIS Services","suburb":"Osborne Park","postcode":"6017","phone":"(08) 9387 0555","public_email":"enquiries@activ.asn.au","website_url":"https://www.activ.asn.au","workshop_relevance":"large WA disability services organisation; autism families well represented in client base","lat":-31.90563333333333,"lon":115.80816666666664},{"organisation_name":"Nulsen Disability Services","category":"Disability & NDIS Services","suburb":"Welshpool","postcode":"6106","phone":"(08) 9351 7700","public_email":"info@nulsen.org.au","website_url":"https://www.nulsen.org.au","workshop_relevance":"provides disability support including complex care; serves autistic individuals","lat":-31.9944,"lon":115.9222},{"organisation_name":"Anglicare WA","category":"NGOs/Charities (family, disability, mental health)","suburb":"East Perth","postcode":"6004","phone":"(08) 9263 2000","public_email":"contactus@anglicare.com.au","website_url":"https://www.anglicare.com.au","workshop_relevance":"broad social services provider; works with families and disability sector across WA","lat":-31.9587,"lon":115.8711},{"organisation_name":"UnitingCare West","category":"NGOs/Charities (family, disability, mental health)","suburb":"Subiaco","postcode":"6008","phone":"(08) 9297 1200","public_email":"info@unitingcarewest.org.au","website_url":"https://www.unitingcarewest.org.au","workshop_relevance":"large NGO with community services across WA; families and carers in service base","lat":-31.952025,"lon":115.811225},{"organisation_name":"Centacare (Archdiocese of Perth)","category":"NGOs/Charities (family, disability, mental health)","suburb":"Northbridge","postcode":"6003","phone":"(08) 9325 6644","public_email":"centacare@centacare.com.au","website_url":"https://www.centacare.com.au","workshop_relevance":"Catholic social services; counselling and disability programs; families with autistic children","lat":-31.94375,"lon":115.86445},{"organisation_name":"Ngala","category":"Early Childhood & Family Services","suburb":"Kensington","postcode":"6151","phone":"(08) 9368 9368","public_email":"ngala@ngala.com.au","website_url":"https://www.ngala.com.au","workshop_relevance":"WA's primary early parenting service; crucial for early identification and family support","lat":-31.983099999999997,"lon":115.87526666666666},{"organisation_name":"Wanslea Family Services","category":"Early Childhood & Family Services","suburb":"Innaloo","postcode":"6018","phone":"(08) 9446 9169","public_email":"info@wanslea.com.au","website_url":"https://www.wanslea.com.au","workshop_relevance":"supports families and young carers; highly relevant for autism workshop outreach","lat":-31.892585714285712,"lon":115.78825714285712},{"organisation_name":"Relationships Australia WA","category":"Parent/Carer Support Organisations","suburb":"Subiaco","postcode":"6008","phone":"(08) 9489 6400","public_email":"rawa@relationships.org.au","website_url":"https://www.relationships.org.au/wa","workshop_relevance":"offers counselling and support to families; parents of autistic children are a key group","lat":-31.952025,"lon":115.811225},{"organisation_name":"WA Primary Health Alliance","category":"Health Services & Primary Health Networks","suburb":"Perth","postcode":"6000","phone":"(08) 6278 7900","public_email":"info@wapha.org.au","website_url":"https://www.wapha.org.au","workshop_relevance":"WA's Primary Health Network; funds and coordinates community health services","lat":-31.9522,"lon":115.8614},{"organisation_name":"Derbarl Yerrigan Health Service","category":"Aboriginal & Torres Strait Islander Services","suburb":"East Perth","postcode":"6004","phone":"(08) 9421 3888","public_email":"info@dyhs.com.au","website_url":"https://www.dyhs.com.au","workshop_relevance":"key Aboriginal community health service for Perth metro; disability and family health focus","lat":-31.9587,"lon":115.8711},{"organisation_name":"Aboriginal Health Council of WA","category":"Aboriginal & Torres Strait Islander Services","suburb":"Perth","postcode":"6000","phone":"(08) 9227 1631","public_email":"admin@ahcwa.org","website_url":"https://www.ahcwa.org","workshop_relevance":"peak body for Aboriginal community controlled health in WA; policy and referral resource","lat":-31.9522,"lon":115.8614},{"organisation_name":"Metropolitan Migrant Resource Centre","category":"Multicultural & Settlement Services","suburb":"Perth","postcode":"6000","phone":"(08) 9227 5711","public_email":"info@mmrc.net.au","website_url":"https://www.mmrc.net.au","workshop_relevance":"settlement support for migrants and refugees; CALD families with autistic children are key audience","lat":-31.9522,"lon":115.8614},{"organisation_name":"Association for Services to Torture and Trauma Survivors (ASeTTS)","category":"Multicultural & Settlement Services","suburb":"East Perth","postcode":"6004","phone":"(08) 9227 2700","public_email":"asetts@asetts.org.au","website_url":"https://www.asetts.org.au","workshop_relevance":"supports refugee and asylum seeker families; some families include autistic children","lat":-31.9587,"lon":115.8711},{"organisation_name":"Multicultural Services Centre of WA","category":"Multicultural & Settlement Services","suburb":"Mirrabooka","postcode":"6061","phone":"(08) 9345 5755","public_email":"info@mscwa.com.au","website_url":"https://www.mscwa.com.au","workshop_relevance":"settlement and social support for CALD communities; autism awareness relevant","lat":-31.86555,"lon":115.8476},{"organisation_name":"City of Perth Library","category":"Councils & Libraries","suburb":"Perth","postcode":"6000","phone":"(08) 9461 3449","public_email":"","website_url":"https://www.cityofperth.wa.gov.au/libraries","workshop_relevance":"central public library; community hub for information and workshop promotion","lat":-31.9522,"lon":115.8614},{"organisation_name":"State Library of Western Australia","category":"Councils & Libraries","suburb":"Perth","postcode":"6000","phone":"(08) 9427 3111","public_email":"slwa@slwa.wa.gov.au","website_url":"https://www.slwa.wa.gov.au","workshop_relevance":"state flagship library; community programs and family services information point","lat":-31.9522,"lon":115.8614},{"organisation_name":"City of Stirling Libraries","category":"Councils & Libraries","suburb":"Stirling","postcode":"6021","phone":"(08) 9205 8555","public_email":"libraries@stirling.wa.gov.au","website_url":"https://www.stirling.wa.gov.au/libraries","workshop_relevance":"serves large northern metro area; families with autistic children attend programs","lat":-31.8792,"lon":115.81915},{"organisation_name":"City of Joondalup Library","category":"Councils & Libraries","suburb":"Joondalup","postcode":"6027","phone":"(08) 9400 4900","public_email":"library@joondalup.wa.gov.au","website_url":"https://www.joondalup.wa.gov.au/library","workshop_relevance":"northern metro library with family programs; reaches parents and carers","lat":-31.7619,"lon":115.7564875},{"organisation_name":"City of Wanneroo Library","category":"Councils & Libraries","suburb":"Wanneroo","postcode":"6065","phone":"(08) 9405 5000","public_email":"libraries@wanneroo.wa.gov.au","website_url":"https://www.wanneroo.wa.gov.au/libraries","workshop_relevance":"outer northern metro library service; growing family community","lat":-31.760627777777778,"lon":115.84022777777778},{"organisation_name":"City of Rockingham Library","category":"Councils & Libraries","suburb":"Rockingham","postcode":"6168","phone":"(08) 9528 0333","public_email":"library@rockingham.wa.gov.au","website_url":"https://www.rockingham.wa.gov.au/library","workshop_relevance":"southern metro library; serves diverse family community including disability sector","lat":-32.272775,"lon":115.7363},{"organisation_name":"City of Mandurah Libraries","category":"Councils & Libraries","suburb":"Mandurah","postcode":"6210","phone":"(08) 9550 3783","public_email":"library@mandurah.wa.gov.au","website_url":"https://www.mandurah.wa.gov.au/libraries","workshop_relevance":"Peel region library; serves Mandurah and surrounds including disability families","lat":-32.562425,"lon":115.7226625},{"organisation_name":"City of Gosnells Library","category":"Councils & Libraries","suburb":"Gosnells","postcode":"6110","phone":"(08) 9397 3444","public_email":"library@gosnells.wa.gov.au","website_url":"https://www.gosnells.wa.gov.au/library","workshop_relevance":"southeastern metro library; diverse community including disability families","lat":-32.086574999999996,"lon":115.993975},{"organisation_name":"City of Fremantle Library","category":"Councils & Libraries","suburb":"Fremantle","postcode":"6160","phone":"(08) 9432 9766","public_email":"library@fremantle.wa.gov.au","website_url":"https://www.fremantle.wa.gov.au/library","workshop_relevance":"Fremantle library; community events and diverse family programs","lat":-32.0563,"lon":115.7456},{"organisation_name":"Swan Libraries","category":"Councils & Libraries","suburb":"Midland","postcode":"6056","phone":"(08) 9267 9267","public_email":"libraries@swan.wa.gov.au","website_url":"https://www.swan.wa.gov.au/libraries","workshop_relevance":"eastern metro library service; large community with families and disability sector","lat":-31.8727,"lon":116.03342352941176},{"organisation_name":"Bayswater Library","category":"Councils & Libraries","suburb":"Bayswater","postcode":"6053","phone":"(08) 9272 0600","public_email":"library@bayswater.wa.gov.au","website_url":"https://www.bayswater.wa.gov.au/library","workshop_relevance":"inner eastern metro library; active community programs","lat":-31.9169,"lon":115.9178},{"organisation_name":"YMCA WA","category":"Youth Services","suburb":"Perth","postcode":"6000","phone":"(08) 9260 9600","public_email":"info@ymcawa.org.au","website_url":"https://www.ymcawa.org.au","workshop_relevance":"YMCA community programs across WA; inclusive recreation and youth support","lat":-31.9522,"lon":115.8614},{"organisation_name":"Headspace Perth","category":"Youth Services","suburb":"Perth","postcode":"6000","phone":"(08) 9225 6780","public_email":"","website_url":"https://headspace.org.au/headspace-centres/perth/","workshop_relevance":"headspace centre Perth; mental health support for young people including autistic youth","lat":-31.9522,"lon":115.8614},{"organisation_name":"Headspace Joondalup","category":"Youth Services","suburb":"Joondalup","postcode":"6027","phone":"(08) 9400 0100","public_email":"","website_url":"https://headspace.org.au/headspace-centres/joondalup/","workshop_relevance":"headspace northern suburbs; serves autistic youth and families","lat":-31.7619,"lon":115.7564875},{"organisation_name":"Headspace Fremantle","category":"Youth Services","suburb":"Fremantle","postcode":"6160","phone":"(08) 9336 0600","public_email":"","website_url":"https://headspace.org.au/headspace-centres/fremantle/","workshop_relevance":"headspace Fremantle; youth mental health for southern metro","lat":-32.0563,"lon":115.7456},{"organisation_name":"Headspace Midland","category":"Youth Services","suburb":"Midland","postcode":"6056","phone":"(08) 9274 5900","public_email":"","website_url":"https://headspace.org.au/headspace-centres/midland/","workshop_relevance":"headspace eastern metro; autism and mental health co-occurring conditions","lat":-31.8727,"lon":116.03342352941176},{"organisation_name":"Telethon Kids Institute","category":"Health Services & Primary Health Networks","suburb":"Nedlands","postcode":"6009","phone":"(08) 6319 1000","public_email":"telethonkids@telethonkids.org.au","website_url":"https://www.telethonkids.org.au","workshop_relevance":"major autism and child health research institute; strong community profile in WA","lat":-31.98708,"lon":115.8077},{"organisation_name":"Perth Children's Hospital Foundation","category":"Health Services & Primary Health Networks","suburb":"Nedlands","postcode":"6009","phone":"(08) 6456 0530","public_email":"info@pchf.org.au","website_url":"https://www.pchf.org.au","workshop_relevance":"fundraising and community health link for Perth Children's Hospital","lat":-31.98708,"lon":115.8077},{"organisation_name":"Disability Services Commission WA (NDIS)","category":"Disability & NDIS Services","suburb":"Perth","postcode":"6000","phone":"(08) 9426 9200","public_email":"dsc@dsc.wa.gov.au","website_url":"https://www.disability.wa.gov.au","workshop_relevance":"government disability services; information and referral for NDIS participants in WA","lat":-31.9522,"lon":115.8614},{"organisation_name":"Autism CRC","category":"Disability & NDIS Services","suburb":"Nedlands","postcode":"6009","phone":"(08) 6488 3700","public_email":"info@autismcrc.com.au","website_url":"https://www.autismcrc.com.au","workshop_relevance":"national autism research centre; WA-based; evidence base for workshop content","lat":-31.98708,"lon":115.8077},{"organisation_name":"Down Syndrome WA","category":"Disability & NDIS Services","suburb":"Bentley","postcode":"6102","phone":"(08) 9470 2611","public_email":"admin@dswa.org.au","website_url":"https://www.dswa.org.au","workshop_relevance":"disability support for Down syndrome families; overlapping audience with autism workshops","lat":-32.0011,"lon":115.917275},{"organisation_name":"WACOSS (WA Council of Social Service)","category":"NGOs/Charities (family, disability, mental health)","suburb":"West Perth","postcode":"6005","phone":"(08) 9420 7222","public_email":"wacoss@wacoss.org.au","website_url":"https://www.wacoss.org.au","workshop_relevance":"WA social services peak body; connects to disability and family service networks","lat":-31.949,"lon":115.842},{"organisation_name":"Carers WA","category":"Parent/Carer Support Organisations","suburb":"West Perth","postcode":"6005","phone":"(08) 9228 5200","public_email":"info@carerswa.com.au","website_url":"https://www.carerswa.com.au","workshop_relevance":"peak organisation for carers in WA; parents/carers of autistic people are major cohort","lat":-31.949,"lon":115.842},{"organisation_name":"Raising Children Network (WA Partner - Ngala)","category":"Early Childhood & Family Services","suburb":"Kensington","postcode":"6151","phone":"(08) 9368 9368","public_email":"ngala@ngala.com.au","website_url":"https://raisingchildren.net.au","workshop_relevance":"national parenting resource relevant to WA families; Ngala is key WA partner","lat":-31.983099999999997,"lon":115.87526666666666},{"organisation_name":"Fremantle Community Centre","category":"Community Centres & Neighbourhood Houses","suburb":"Fremantle","postcode":"6160","phone":"(08) 9432 9734","public_email":"fremantlecc@fremantle.wa.gov.au","website_url":"https://www.fremantle.wa.gov.au/community-centre","workshop_relevance":"inner south community centre; hosts community workshops and events","lat":-32.0563,"lon":115.7456},{"organisation_name":"Midland Community Centre","category":"Community Centres & Neighbourhood Houses","suburb":"Midland","postcode":"6056","phone":"(08) 9274 3844","public_email":"","website_url":"https://www.communitygroups.com.au/midland","workshop_relevance":"community meeting and event space for eastern suburbs","lat":-31.8727,"lon":116.03342352941176},{"organisation_name":"Gosnells Community Centre","category":"Community Centres & Neighbourhood Houses","suburb":"Gosnells","postcode":"6110","phone":"(08) 9397 3400","public_email":"","website_url":"https://www.gosnells.wa.gov.au/community","workshop_relevance":"community centre for southeastern Perth families","lat":-32.086574999999996,"lon":115.993975},{"organisation_name":"Southern Suburbs Community Services","category":"Community Centres & Neighbourhood Houses","suburb":"Rockingham","postcode":"6168","phone":"(08) 9527 4444","public_email":"info@sscs.org.au","website_url":"https://www.sscs.org.au","workshop_relevance":"community services and programs across southern Perth metro","lat":-32.272775,"lon":115.7363},{"organisation_name":"North Perth Community Centre","category":"Community Centres & Neighbourhood Houses","suburb":"North Perth","postcode":"6006","phone":"(08) 9228 8330","public_email":"northperthcc@northperthcc.org","website_url":"https://www.northperthcc.org","workshop_relevance":"vibrant community centre with diverse programs; family workshops welcomed","lat":-31.9272,"lon":115.8528},{"organisation_name":"Subiaco Community Centre","category":"Community Centres & Neighbourhood Houses","suburb":"Subiaco","postcode":"6008","phone":"(08) 9388 3409","public_email":"subcc@cityofsubiaco.wa.gov.au","website_url":"https://www.subiaco.wa.gov.au/community-centre","workshop_relevance":"inner western suburbs community centre; programs for families and community groups","lat":-31.952025,"lon":115.811225},{"organisation_name":"Mirrabooka Community Centre","category":"Community Centres & Neighbourhood Houses","suburb":"Mirrabooka","postcode":"6061","phone":"(08) 9344 9399","public_email":"","website_url":"https://www.stirling.wa.gov.au/community","workshop_relevance":"community centre serving diverse northern suburbs community","lat":-31.86555,"lon":115.8476},{"organisation_name":"Armadale Community Resource Centre","category":"Community Centres & Neighbourhood Houses","suburb":"Armadale","postcode":"6112","phone":"(08) 9497 1234","public_email":"","website_url":"https://www.armadale.wa.gov.au/community","workshop_relevance":"southeastern metro community resource centre","lat":-32.154561538461536,"lon":115.98822307692308},{"organisation_name":"Kalamunda Community Centre","category":"Community Centres & Neighbourhood Houses","suburb":"Kalamunda","postcode":"6076","phone":"(08) 9257 9999","public_email":"community@kalamunda.wa.gov.au","website_url":"https://www.kalamunda.wa.gov.au/community","workshop_relevance":"eastern hills community centre; serves families in Kalamunda area","lat":-31.988566666666667,"lon":116.09835833333334},{"organisation_name":"Cannington Community Education and Training Centre","category":"Community Centres & Neighbourhood Houses","suburb":"Cannington","postcode":"6107","phone":"(08) 9351 0300","public_email":"cannington@canning.wa.gov.au","website_url":"https://www.canning.wa.gov.au","workshop_relevance":"education and training for community; families in Canning area","lat":-32.016371428571425,"lon":115.9538},{"organisation_name":"Balga Community Hub","category":"Community Centres & Neighbourhood Houses","suburb":"Balga","postcode":"6061","phone":"(08) 9345 8922","public_email":"","website_url":"https://www.stirling.wa.gov.au/community","workshop_relevance":"community hub serving northern suburbs disadvantaged community","lat":-31.86555,"lon":115.8476},{"organisation_name":"Thornlie Community Centre","category":"Community Centres & Neighbourhood Houses","suburb":"Thornlie","postcode":"6108","phone":"(08) 9493 4600","public_email":"","website_url":"https://www.gosnells.wa.gov.au/community","workshop_relevance":"community centre in southeastern metro growth area","lat":-32.06,"lon":115.955},{"organisation_name":"Perth City Farm","category":"Community Centres & Neighbourhood Houses","suburb":"East Perth","postcode":"6004","phone":"(08) 9325 7993","public_email":"info@perthcityfarm.org.au","website_url":"https://www.perthcityfarm.org.au","workshop_relevance":"community programs and workshops; inclusive and family-friendly venue","lat":-31.9587,"lon":115.8711},{"organisation_name":"Belmont Community Centre","category":"Community Centres & Neighbourhood Houses","suburb":"Belmont","postcode":"6104","phone":"(08) 9477 7222","public_email":"community@belmont.wa.gov.au","website_url":"https://www.belmont.wa.gov.au/community","workshop_relevance":"community centre east of Perth CBD; family-oriented programs","lat":-31.940033333333332,"lon":115.9315},{"organisation_name":"Swan Youthcare","category":"Youth Services","suburb":"Middle Swan","postcode":"6056","phone":"(08) 9374 3000","public_email":"info@swanyouthcare.com.au","website_url":"https://www.swanyouthcare.com.au","workshop_relevance":"youth and family community services in eastern metro; autism families within service base","lat":-31.8727,"lon":116.03342352941176},{"organisation_name":"Youth Focus WA","category":"Youth Services","suburb":"West Perth","postcode":"6005","phone":"(08) 9382 5400","public_email":"youthfocus@youthfocus.com.au","website_url":"https://www.youthfocus.com.au","workshop_relevance":"WA youth mental health organisation; serves autistic and neurodivergent young people","lat":-31.949,"lon":115.842},{"organisation_name":"Parkerville Children and Youth Care","category":"Youth Services","suburb":"Parkerville","postcode":"6081","phone":"","public_email":"(08) 9295 9244","website_url":"info@parkervillechildrens.com.au","workshop_relevance":"residential and community services for vulnerable youth including autistic young people","lat":-31.8765,"lon":116.15435},{"organisation_name":"Kidsafe WA","category":"Early Childhood & Family Services","suburb":"Subiaco","postcode":"6008","phone":"(08) 9340 8509","public_email":"kidsafe@kidsafewa.com.au","website_url":"https://www.kidsafewa.com.au","workshop_relevance":"community education around child safety; autism families benefit from inclusive resources","lat":-31.952025,"lon":115.811225},{"organisation_name":"Lady Gowrie WA","category":"Early Childhood & Family Services","suburb":"Victoria Park","postcode":"6100","phone":"(08) 9329 4400","public_email":"wa@gowrie.net.au","website_url":"https://www.gowrie.net.au/wa","workshop_relevance":"early childhood inclusion services; supports families with autistic children in childcare","lat":-31.9675,"lon":115.90516666666667},{"organisation_name":"Child and Parent Centre (Mirrabooka)","category":"Early Childhood & Family Services","suburb":"Mirrabooka","postcode":"6061","phone":"(08) 9344 6260","public_email":"","website_url":"https://www.capcwa.org.au","workshop_relevance":"community hub for families with young children; early autism identification","lat":-31.86555,"lon":115.8476},{"organisation_name":"Child and Parent Centre (Armadale)","category":"Early Childhood & Family Services","suburb":"Armadale","postcode":"6112","phone":"(08) 9391 2520","public_email":"","website_url":"https://www.capcwa.org.au","workshop_relevance":"family support hub for Armadale community","lat":-32.154561538461536,"lon":115.98822307692308},{"organisation_name":"Noongar Family Safety and Wellbeing Council","category":"Aboriginal & Torres Strait Islander Services","suburb":"Perth","postcode":"6000","phone":"(08) 9221 1411","public_email":"","website_url":"https://www.noongarfamilysafety.com.au","workshop_relevance":"advocates for Noongar family safety; autism awareness in Aboriginal communities","lat":-31.9522,"lon":115.8614},{"organisation_name":"Babbingur Mia (Wungening Aboriginal Corporation)","category":"Aboriginal & Torres Strait Islander Services","suburb":"East Perth","postcode":"6004","phone":"(08) 9421 3888","public_email":"","website_url":"https://www.wungening.com.au","workshop_relevance":"Aboriginal community service organisation in Perth; community health and disability support","lat":-31.9587,"lon":115.8711},{"organisation_name":"Moorditj Djena (Paediatric Aboriginal Community Health)","category":"Aboriginal & Torres Strait Islander Services","suburb":"Perth","postcode":"6000","phone":"(08) 6456 0500","public_email":"","website_url":"https://www.pch.health.wa.gov.au","workshop_relevance":"Aboriginal paediatric health service at Perth Children's Hospital; autism diagnosis pathway","lat":-31.9522,"lon":115.8614},{"organisation_name":"Wirrpanda Foundation","category":"Aboriginal & Torres Strait Islander Services","suburb":"East Perth","postcode":"6004","phone":"(08) 9362 9888","public_email":"info@wirrpanda.com.au","website_url":"https://www.wirrpanda.com.au","workshop_relevance":"Aboriginal community development through sport; youth and family programs","lat":-31.9587,"lon":115.8711},{"organisation_name":"Ethnic Child Care Family and Community Services","category":"Multicultural & Settlement Services","suburb":"Perth","postcode":"6000","phone":"(08) 9221 0533","public_email":"eccfacs@eccfacs.org.au","website_url":"https://www.eccfacs.org.au","workshop_relevance":"ethnocultural childcare and community services; autism in CALD communities","lat":-31.9522,"lon":115.8614},{"organisation_name":"Centre for Multicultural Youth WA","category":"Multicultural & Settlement Services","suburb":"Perth","postcode":"6000","phone":"(08) 9221 1444","public_email":"info@cmy.net.au","website_url":"https://www.cmy.net.au","workshop_relevance":"youth-focused multicultural services; young autistic people from CALD backgrounds","lat":-31.9522,"lon":115.8614},{"organisation_name":"African Communities Association of WA (ACAWA)","category":"Multicultural & Settlement Services","suburb":"Perth","postcode":"6000","phone":"(08) 9221 1411","public_email":"acawa@acawa.org.au","website_url":"https://www.acawa.org.au","workshop_relevance":"African community support; outreach to families with autistic children","lat":-31.9522,"lon":115.8614},{"organisation_name":"Perth Chinese Community Services","category":"Multicultural & Settlement Services","suburb":"Northbridge","postcode":"6003","phone":"(08) 9227 8277","public_email":"pccs@pccs.org.au","website_url":"https://www.pccs.org.au","workshop_relevance":"community services for Chinese-Australians; families with autistic children in community","lat":-31.94375,"lon":115.86445},{"organisation_name":"Autism Behavioural Intervention (ABI)","category":"Allied Health (OT, Speech, Psych)","suburb":"Osborne Park","postcode":"6017","phone":"(08) 9242 4722","public_email":"info@abiresources.net","website_url":"https://www.abiresources.net","workshop_relevance":"WA provider of behaviour intervention for autism; key clinical partner","lat":-31.90563333333333,"lon":115.80816666666664},{"organisation_name":"Child Development Service (WA Health)","category":"Allied Health (OT, Speech, Psych)","suburb":"Subiaco","postcode":"6008","phone":"(08) 9340 8222","public_email":"","website_url":"https://www.healthywa.wa.gov.au","workshop_relevance":"government child development service; assessment and therapy for autistic children","lat":-31.952025,"lon":115.811225},{"organisation_name":"Communicare","category":"NGOs/Charities (family, disability, mental health)","suburb":"Cannington","postcode":"6107","phone":"(08) 9258 6100","public_email":"communicare@communicare.org.au","website_url":"https://www.communicare.org.au","workshop_relevance":"community services including disability and mental health; southeast metro focus","lat":-32.016371428571425,"lon":115.9538},{"organisation_name":"Rise Network","category":"NGOs/Charities (family, disability, mental health)","suburb":"Midland","postcode":"6056","phone":"(08) 9278 2522","public_email":"info@risenetwork.com.au","website_url":"https://www.risenetwork.com.au","workshop_relevance":"disability and mental health services eastern metro; autism within service base","lat":-31.8727,"lon":116.03342352941176},{"organisation_name":"Ruah Community Services","category":"NGOs/Charities (family, disability, mental health)","suburb":"East Perth","postcode":"6004","phone":"(08) 9496 1000","public_email":"info@ruah.org.au","website_url":"https://www.ruah.org.au","workshop_relevance":"broad community services including disability support; Perth metro wide","lat":-31.9587,"lon":115.8711},{"organisation_name":"Samaritans WA","category":"NGOs/Charities (family, disability, mental health)","suburb":"Perth","postcode":"6000","phone":"(08) 9212 9999","public_email":"samaritans@samaritans.org.au","website_url":"https://www.samaritans.org.au","workshop_relevance":"mental health and crisis support; neurodivergent individuals and families use services","lat":-31.9522,"lon":115.8614},{"organisation_name":"Richmond Wellbeing WA","category":"NGOs/Charities (family, disability, mental health)","suburb":"Osborne Park","postcode":"6017","phone":"(08) 9345 0000","public_email":"richmond@richmondwellbeing.org.au","website_url":"https://www.richmondwellbeing.org.au","workshop_relevance":"community mental health services; autism with mental health co-occurring","lat":-31.90563333333333,"lon":115.80816666666664},{"organisation_name":"Holyoake WA","category":"NGOs/Charities (family, disability, mental health)","suburb":"Shenton Park","postcode":"6008","phone":"(08) 9382 9400","public_email":"holyoake@holyoake.org.au","website_url":"https://www.holyoake.org.au","workshop_relevance":"AOD and family support services; families affected by addiction including autistic members","lat":-31.952025,"lon":115.811225},{"organisation_name":"St Bart's (St Bartholomew's House)","category":"NGOs/Charities (family, disability, mental health)","suburb":"Perth","postcode":"6000","phone":"(08) 9325 5544","public_email":"info@stbarts.com.au","website_url":"https://www.stbarts.com.au","workshop_relevance":"homelessness and disability community services in Perth; autistic individuals in service base","lat":-31.9522,"lon":115.8614},{"organisation_name":"Mission Australia WA","category":"NGOs/Charities (family, disability, mental health)","suburb":"Perth","postcode":"6000","phone":"(08) 9481 2260","public_email":"","website_url":"https://www.missionaustralia.com.au","workshop_relevance":"national NGO with WA presence; disability and family services across Perth","lat":-31.9522,"lon":115.8614},{"organisation_name":"Salvation Army WA","category":"Faith-Based Community Organisations","suburb":"Perth","postcode":"6000","phone":"(08) 9260 9500","public_email":"","website_url":"https://www.salvationarmy.org.au","workshop_relevance":"Salvation Army WA; community services across Perth including disability and family support","lat":-31.9522,"lon":115.8614},{"organisation_name":"St Vincent de Paul Society WA","category":"Faith-Based Community Organisations","suburb":"Leederville","postcode":"6007","phone":"(08) 9355 4000","public_email":"stateoffice@svdpwa.org.au","website_url":"https://www.svdpwa.org.au","workshop_relevance":"Vinnies WA; community support for families in need including disability community","lat":-31.93885,"lon":115.83655},{"organisation_name":"Catholic Education WA","category":"Schools & Education Networks (non-school orgs)","suburb":"Perth","postcode":"6000","phone":"(08) 9221 0666","public_email":"cewa@cewa.edu.au","website_url":"https://www.cewa.edu.au","workshop_relevance":"Catholic school system in WA; disability and inclusion programs in schools","lat":-31.9522,"lon":115.8614},{"organisation_name":"Association of Independent Schools WA (AISWA)","category":"Schools & Education Networks (non-school orgs)","suburb":"West Perth","postcode":"6005","phone":"(08) 9441 1700","public_email":"aiswa@ais.wa.edu.au","website_url":"https://www.ais.wa.edu.au","workshop_relevance":"peak body for independent schools in WA; autism inclusion in schools","lat":-31.949,"lon":115.842},{"organisation_name":"Department of Education WA - Disability Services","category":"Schools & Education Networks (non-school orgs)","suburb":"East Perth","postcode":"6004","phone":"(08) 9264 4111","public_email":"","website_url":"https://www.education.wa.edu.au","workshop_relevance":"WA Department of Education disability and diversity services; key partner for school outreach","lat":-31.9587,"lon":115.8711},{"organisation_name":"P&C Federation of WA","category":"Schools & Education Networks (non-school orgs)","suburb":"West Perth","postcode":"6005","phone":"(08) 9380 7200","public_email":"info@pandc.wa.edu.au","website_url":"https://www.pandc.wa.edu.au","workshop_relevance":"peak body for WA school parent and community groups; connects to autism workshop audiences","lat":-31.949,"lon":115.842},{"organisation_name":"Curtin University Disability and Access","category":"Schools & Education Networks (non-school orgs)","suburb":"Bentley","postcode":"6102","phone":"(08) 9266 9266","public_email":"disability@curtin.edu.au","website_url":"https://www.curtin.edu.au/disability","workshop_relevance":"Curtin University disability services; autistic students and staff","lat":-32.0011,"lon":115.917275},{"organisation_name":"Disability Services Australia (DSA) WA","category":"Disability & NDIS Services","suburb":"Osborne Park","postcode":"6017","phone":"(08) 9201 7500","public_email":"dsa@dsa.org.au","website_url":"https://www.dsa.org.au","workshop_relevance":"disability services with WA presence; autism within service base","lat":-31.90563333333333,"lon":115.80816666666664},{"organisation_name":"Cerebral Palsy Alliance WA","category":"Disability & NDIS Services","suburb":"Subiaco","postcode":"6008","phone":"(08) 9244 1777","public_email":"wa@cpa.org.au","website_url":"https://www.cerebralpalsy.org.au","workshop_relevance":"WA office of CPA; OT and allied health relevant to autism co-occurring conditions","lat":-31.952025,"lon":115.811225},{"organisation_name":"Vision Australia WA","category":"Disability & NDIS Services","suburb":"Jolimont","postcode":"6014","phone":"(08) 9311 8888","public_email":"info@visionaustralia.org","website_url":"https://www.visionaustralia.org","workshop_relevance":"dual diagnosis in autism common; community connection relevant","lat":-31.9391,"lon":115.806475},{"organisation_name":"Senses Australia","category":"Disability & NDIS Services","suburb":"Jolimont","postcode":"6014","phone":"(08) 9473 5000","public_email":"info@senses.org.au","website_url":"https://www.senses.org.au","workshop_relevance":"WA disability services for sensory impairment; autism sensory overlap relevant","lat":-31.9391,"lon":115.806475},{"organisation_name":"Lotterywest","category":"Community Centres & Neighbourhood Houses","suburb":"Perth","postcode":"6000","phone":"(08) 9488 6000","public_email":"enquiries@lotterywest.wa.gov.au","website_url":"https://www.lotterywest.wa.gov.au","workshop_relevance":"lottery funds community programs; key funding partner for autism workshops","lat":-31.9522,"lon":115.8614},{"organisation_name":"Volunteering WA","category":"Community Centres & Neighbourhood Houses","suburb":"Perth","postcode":"6000","phone":"(08) 9482 4333","public_email":"info@volunteeringwa.org.au","website_url":"https://www.volunteeringwa.org.au","workshop_relevance":"community volunteer networks across WA; promotes community events and workshops","lat":-31.9522,"lon":115.8614},{"organisation_name":"WA Sports Federation","category":"Sport, Recreation & Inclusion Programs","suburb":"Claremont","postcode":"6010","phone":"(08) 9387 9800","public_email":"wasf@wasf.com.au","website_url":"https://www.wasf.com.au","workshop_relevance":"peak body for WA sport; inclusive sport programs relevant to autism families","lat":-31.96944,"lon":115.78274000000002},{"organisation_name":"Disability Sport and Recreation WA","category":"Sport, Recreation & Inclusion Programs","suburb":"Mount Claremont","postcode":"6010","phone":"(08) 9275 7000","public_email":"info@dsrwa.org.au","website_url":"https://www.dsrwa.org.au","workshop_relevance":"peak body for disability sport in WA; autism-friendly sport programs","lat":-31.96944,"lon":115.78274000000002},{"organisation_name":"Special Olympics WA","category":"Sport, Recreation & Inclusion Programs","suburb":"Osborne Park","postcode":"6017","phone":"(08) 9387 8633","public_email":"specialolympicswa@specialolympics.org.au","website_url":"https://www.specialolympicswa.org.au","workshop_relevance":"intellectual disability sport including autism; community connection","lat":-31.90563333333333,"lon":115.80816666666664},{"organisation_name":"Riding for the Disabled WA","category":"Sport, Recreation & Inclusion Programs","suburb":"Caversham","postcode":"6055","phone":"(08) 9297 2411","public_email":"admin@rdawa.org.au","website_url":"https://www.rdawa.org.au","workshop_relevance":"equine-assisted therapy popular with autistic children; community connection","lat":-31.869277777777775,"lon":115.9788111111111},{"organisation_name":"Surf Life Saving WA (Inclusion Programs)","category":"Sport, Recreation & Inclusion Programs","suburb":"Scarborough","postcode":"6019","phone":"(08) 9207 7000","public_email":"info@slswa.com.au","website_url":"https://www.slswa.com.au","workshop_relevance":"runs inclusive beach programs; autism-friendly community sport","lat":-31.90375,"lon":115.76895},{"organisation_name":"Autism Sport WA","category":"Sport, Recreation & Inclusion Programs","suburb":"Perth","postcode":"6000","phone":"","public_email":"","website_url":"https://www.autismsportwa.org.au","workshop_relevance":"autism-specific sport programs in WA; highly targeted audience for workshops","lat":-31.9522,"lon":115.8614},{"organisation_name":"7 News Perth","category":"Local Media & Community Promotion Channels","suburb":"Perth","postcode":"6000","phone":"(08) 9344 0777","public_email":"","website_url":"https://7news.com.au/perth","workshop_relevance":"major Perth TV news outlet; community story promotion for autism workshops","lat":-31.9522,"lon":115.8614},{"organisation_name":"Nine News Perth","category":"Local Media & Community Promotion Channels","suburb":"Perth","postcode":"6000","phone":"(08) 9449 9999","public_email":"","website_url":"https://www.9news.com.au/perth","workshop_relevance":"Nine Network Perth; community news and stories for autism outreach","lat":-31.9522,"lon":115.8614},{"organisation_name":"ABC Perth (720 ABC)","category":"Local Media & Community Promotion Channels","suburb":"Perth","postcode":"6000","phone":"(08) 9220 2700","public_email":"","website_url":"https://www.abc.net.au/perth","workshop_relevance":"ABC Perth radio; public broadcaster; community service announcements","lat":-31.9522,"lon":115.8614},{"organisation_name":"RTRfm 92.1","category":"Local Media & Community Promotion Channels","suburb":"Perth","postcode":"6004","phone":"(08) 9260 1221","public_email":"rtr@rtrfm.com.au","website_url":"https://www.rtrfm.com.au","workshop_relevance":"Perth community radio; strong community engagement and event promotion","lat":-31.9587,"lon":115.8711},{"organisation_name":"Community Broadcasting Association (CBAA) WA Members","category":"Local Media & Community Promotion Channels","suburb":"Perth","postcode":"6000","phone":"","public_email":"","website_url":"https://www.cbaa.org.au","workshop_relevance":"WA community radio stations; effective for community workshop promotion","lat":-31.9522,"lon":115.8614},{"organisation_name":"Perth Now (Community Notices)","category":"Local Media & Community Promotion Channels","suburb":"Perth","postcode":"6000","phone":"(08) 9482 3111","public_email":"","website_url":"https://www.perthnow.com.au","workshop_relevance":"online news; community section for event listings","lat":-31.9522,"lon":115.8614},{"organisation_name":"Bunbury Regional Community Services","category":"Community Centres & Neighbourhood Houses","suburb":"Bunbury","postcode":"6230","phone":"(08) 9791 6444","public_email":"info@brcs.org.au","website_url":"https://www.brcs.org.au","workshop_relevance":"regional community services in Bunbury; families and disability sector","lat":-33.35980769230769,"lon":115.65213846153846},{"organisation_name":"Bunbury Regional Library","category":"Councils & Libraries","suburb":"Bunbury","postcode":"6230","phone":"(08) 9792 7290","public_email":"library@bunbury.wa.gov.au","website_url":"https://www.bunbury.wa.gov.au/library","workshop_relevance":"regional library in Bunbury southwest WA; community events and family programs","lat":-33.35980769230769,"lon":115.65213846153846},{"organisation_name":"Bunbury Headspace","category":"Youth Services","suburb":"Bunbury","postcode":"6230","phone":"(08) 9721 5444","public_email":"","website_url":"https://headspace.org.au/headspace-centres/bunbury/","workshop_relevance":"headspace Bunbury; youth services for southwest WA including autistic youth","lat":-33.35980769230769,"lon":115.65213846153846},{"organisation_name":"Centrecare Bunbury","category":"NGOs/Charities (family, disability, mental health)","suburb":"Bunbury","postcode":"6230","phone":"(08) 9725 2611","public_email":"bunbury@centrecare.com.au","website_url":"https://www.centrecare.com.au","workshop_relevance":"community services in southwest WA including disability and family counselling","lat":-33.35980769230769,"lon":115.65213846153846},{"organisation_name":"SERCDA (South East Regional Centre for Human Advancement)","category":"Community Centres & Neighbourhood Houses","suburb":"Bunbury","postcode":"6230","phone":"(08) 9791 0411","public_email":"sercda@sercda.com.au","website_url":"https://www.sercda.com.au","workshop_relevance":"community development and training in southwest WA; workshop partnership potential","lat":-33.35980769230769,"lon":115.65213846153846},{"organisation_name":"Geraldton Resource Centre","category":"Community Centres & Neighbourhood Houses","suburb":"Geraldton","postcode":"6530","phone":"(08) 9964 2742","public_email":"info@grc.org.au","website_url":"https://www.grc.org.au","workshop_relevance":"community resource centre in Geraldton Mid West region; disability and family services","lat":-28.756091304347823,"lon":114.5899695652174},{"organisation_name":"Midwest Multicultural Association","category":"Multicultural & Settlement Services","suburb":"Geraldton","postcode":"6530","phone":"(08) 9964 4150","public_email":"info@mwa.org.au","website_url":"https://www.mwa.org.au","workshop_relevance":"multicultural services in Mid West region; autism awareness in CALD families","lat":-28.756091304347823,"lon":114.5899695652174},{"organisation_name":"City of Greater Geraldton Library","category":"Councils & Libraries","suburb":"Geraldton","postcode":"6530","phone":"(08) 9956 6600","public_email":"library@cgg.wa.gov.au","website_url":"https://www.cgg.wa.gov.au/library","workshop_relevance":"regional library in Geraldton; serves families and community across Mid West","lat":-28.756091304347823,"lon":114.5899695652174},{"organisation_name":"Goldfields Community Centre (Kalgoorlie)","category":"Community Centres & Neighbourhood Houses","suburb":"Kalgoorlie","postcode":"6430","phone":"(08) 9021 4645","public_email":"","website_url":"https://www.ckb.wa.gov.au/community","workshop_relevance":"Goldfields community centre; regional hub for families and disability sector","lat":-30.749707142857144,"lon":121.46121428571428},{"organisation_name":"Goldfields Women's Centre","category":"Parent/Carer Support Organisations","suburb":"Kalgoorlie","postcode":"6430","phone":"(08) 9091 1104","public_email":"gwc@goldfieldscentre.org.au","website_url":"https://www.goldfieldscentre.org.au","workshop_relevance":"women and family support in Kalgoorlie-Boulder; autistic children in regional families","lat":-30.749707142857144,"lon":121.46121428571428},{"organisation_name":"Kalgoorlie Regional Library","category":"Councils & Libraries","suburb":"Kalgoorlie","postcode":"6430","phone":"(08) 9021 9600","public_email":"library@ckb.wa.gov.au","website_url":"https://www.ckb.wa.gov.au/library","workshop_relevance":"regional library Kalgoorlie; community information hub","lat":-30.749707142857144,"lon":121.46121428571428},{"organisation_name":"Headspace Kalgoorlie","category":"Youth Services","suburb":"Kalgoorlie","postcode":"6430","phone":"(08) 9021 5444","public_email":"","website_url":"https://headspace.org.au/headspace-centres/kalgoorlie/","workshop_relevance":"headspace Kalgoorlie; youth services for Goldfields region","lat":-30.749707142857144,"lon":121.46121428571428},{"organisation_name":"Broome Regional Library","category":"Councils & Libraries","suburb":"Broome","postcode":"6725","phone":"(08) 9191 3600","public_email":"library@broome.wa.gov.au","website_url":"https://www.broome.wa.gov.au/library","workshop_relevance":"regional library in Broome; connects to Kimberley community including Aboriginal families","lat":-18.071620000000003,"lon":122.20965},{"organisation_name":"Kimberley Community Legal Services","category":"NGOs/Charities (family, disability, mental health)","suburb":"Broome","postcode":"6725","phone":"(08) 9193 1044","public_email":"kcls@kcls.org.au","website_url":"https://www.kcls.org.au","workshop_relevance":"community legal services Kimberley; vulnerable families including those with autistic members","lat":-18.071620000000003,"lon":122.20965},{"organisation_name":"Bloodwood Tree Association (Kalgoorlie)","category":"Aboriginal & Torres Strait Islander Services","suburb":"Kalgoorlie","postcode":"6430","phone":"(08) 9021 8444","public_email":"info@bloodwoodtree.org.au","website_url":"https://www.bloodwoodtree.org.au","workshop_relevance":"Aboriginal homelessness and community services in Goldfields; disability within service base","lat":-30.749707142857144,"lon":121.46121428571428},{"organisation_name":"Carers WA Bunbury","category":"Parent/Carer Support Organisations","suburb":"Bunbury","postcode":"6230","phone":"(08) 9726 7888","public_email":"","website_url":"https://www.carerswa.com.au","workshop_relevance":"Carers WA office in Bunbury; regional support for carers of autistic people","lat":-33.35980769230769,"lon":115.65213846153846},{"organisation_name":"Advocacy WA (Citizen Advocacy)","category":"Parent/Carer Support Organisations","suburb":"West Perth","postcode":"6005","phone":"(08) 9420 7279","public_email":"admin@advocacywa.org.au","website_url":"https://www.advocacywa.org.au","workshop_relevance":"disability rights advocacy for people with disability in WA; autism families supported","lat":-31.949,"lon":115.842},{"organisation_name":"People With Disabilities WA (PWdWA)","category":"Disability & NDIS Services","suburb":"Perth","postcode":"6000","phone":"(08) 9420 7279","public_email":"info@pwdwa.org","website_url":"https://www.pwdwa.org","workshop_relevance":"peak body for people with disabilities in WA; autism rights and advocacy","lat":-31.9522,"lon":115.8614},{"organisation_name":"Inclusion WA","category":"Disability & NDIS Services","suburb":"Bentley","postcode":"6102","phone":"(08) 9472 9555","public_email":"inclusion@inclusionwa.org.au","website_url":"https://www.inclusionwa.org.au","workshop_relevance":"disability inclusion services across WA; supports autistic people in community participation","lat":-32.0011,"lon":115.917275},{"organisation_name":"AutismConnect (Telethon Kids resource)","category":"Disability & NDIS Services","suburb":"Nedlands","postcode":"6009","phone":"(08) 6319 1000","public_email":"","website_url":"https://www.autismconnect.org.au","workshop_relevance":"national autism information hub based at Telethon Kids; WA connection for families","lat":-31.98708,"lon":115.8077},{"organisation_name":"Yorganop Child Care (Aboriginal-controlled)","category":"Aboriginal & Torres Strait Islander Services","suburb":"Bentley","postcode":"6102","phone":"(08) 9472 6566","public_email":"yorganop@yorganop.org.au","website_url":"https://www.yorganop.org.au","workshop_relevance":"Aboriginal community controlled childcare in Perth; early autism support relevant","lat":-32.0011,"lon":115.917275},{"organisation_name":"Gawooleng Yawoodeng (Aboriginal Hostels)","category":"Aboriginal & Torres Strait Islander Services","suburb":"Perth","postcode":"6000","phone":"(08) 9221 1555","public_email":"","website_url":"https://www.ahl.gov.au","workshop_relevance":"Aboriginal hostel Perth; regional Aboriginal families visiting Perth for health appointments","lat":-31.9522,"lon":115.8614},{"organisation_name":"Anglican Community Fund WA","category":"Faith-Based Community Organisations","suburb":"Perth","postcode":"6000","phone":"(08) 9425 7200","public_email":"acf@perth.anglican.org","website_url":"https://www.perth.anglican.org","workshop_relevance":"community grants and support through Anglican Church WA","lat":-31.9522,"lon":115.8614},{"organisation_name":"Uniting Church in Australia WA","category":"Faith-Based Community Organisations","suburb":"Perth","postcode":"6000","phone":"(08) 9260 9800","public_email":"reception@wa.uca.org.au","website_url":"https://www.wa.uca.org.au","workshop_relevance":"Uniting Church WA; community outreach and social services; disability and family focus","lat":-31.9522,"lon":115.8614},{"organisation_name":"Perth Muslim Community Centre","category":"Faith-Based Community Organisations","suburb":"Langford","postcode":"6147","phone":"(08) 9258 6682","public_email":"info@muslimcommunity.com.au","website_url":"https://www.muslimcommunity.com.au","workshop_relevance":"Muslim community centre Perth; inclusive community programs for families","lat":-32.043366666666664,"lon":115.92963333333334},{"organisation_name":"Autism Plus WA (formerly YMCA disability programs)","category":"Sport, Recreation & Inclusion Programs","suburb":"Perth","postcode":"6000","phone":"(08) 9260 9600","public_email":"","website_url":"https://www.ymcawa.org.au","workshop_relevance":"YMCA autism-specific inclusive programs across WA; direct audience for workshop promotion","lat":-31.9522,"lon":115.8614},{"organisation_name":"Basketball WA (Inclusion Programs)","category":"Sport, Recreation & Inclusion Programs","suburb":"Perth","postcode":"6000","phone":"(08) 9387 0400","public_email":"info@basketballwa.asn.au","website_url":"https://www.basketballwa.asn.au","workshop_relevance":"Basketball WA inclusivity programs; autism-friendly programs growing in WA","lat":-31.9522,"lon":115.8614},{"organisation_name":"Ability Centre WA","category":"Allied Health (OT, Speech, Psych)","suburb":"Mount Hawthorn","postcode":"6016","phone":"(08) 9443 0211","public_email":"info@abilitycentre.com.au","website_url":"https://www.abilitycentre.com.au","workshop_relevance":"major WA allied health and disability services provider for children and adults","lat":-31.91995,"lon":115.82725},{"organisation_name":"Child and Adolescent Health Service WA (CAHS)","category":"Allied Health (OT, Speech, Psych)","suburb":"Subiaco","postcode":"6008","phone":"(08) 9340 8222","public_email":"","website_url":"https://www.cahs.health.wa.gov.au","workshop_relevance":"government child and adolescent health; autism assessment and early intervention","lat":-31.952025,"lon":115.811225},{"organisation_name":"Autism Connect WA (Disability Awareness WA)","category":"Disability & NDIS Services","suburb":"Perth","postcode":"6000","phone":"","public_email":"","website_url":"https://www.disabilityawarenesswa.org.au","workshop_relevance":"disability awareness programs in WA; autism-specific workshops","lat":-31.9522,"lon":115.8614},{"organisation_name":"WA Primary Health Alliance \u2013 Central and East Metro","category":"Health Services & Primary Health Networks","suburb":"Midland","postcode":"6056","phone":"(08) 6272 4900","public_email":"info@wapha.org.au","website_url":"https://www.wapha.org.au","workshop_relevance":"High","lat":-31.8727,"lon":116.03342352941176},{"organisation_name":"WA Primary Health Alliance \u2013 South Metro","category":"Health Services & Primary Health Networks","suburb":"Fremantle","postcode":"6160","phone":"(08) 6272 4900","public_email":"info@wapha.org.au","website_url":"https://www.wapha.org.au","workshop_relevance":"High","lat":-32.0563,"lon":115.7456},{"organisation_name":"WA Primary Health Alliance \u2013 Country (Geraldton)","category":"Health Services & Primary Health Networks","suburb":"Geraldton","postcode":"6530","phone":"(08) 6272 4900","public_email":"country@wapha.org.au","website_url":"https://www.wapha.org.au/country-wa/","workshop_relevance":"High","lat":-28.756091304347823,"lon":114.5899695652174},{"organisation_name":"Geraldton Regional Hospital Community Health","category":"Health Services & Primary Health Networks","suburb":"Geraldton","postcode":"6530","phone":"(08) 9956 2222","public_email":"","website_url":"https://www.wacountryhealth.health.wa.gov.au","workshop_relevance":"High","lat":-28.756091304347823,"lon":114.5899695652174},{"organisation_name":"Goldfields Population Health Unit (Kalgoorlie)","category":"Health Services & Primary Health Networks","suburb":"Kalgoorlie","postcode":"6430","phone":"(08) 9080 8900","public_email":"","website_url":"https://www.wacountryhealth.health.wa.gov.au","workshop_relevance":"High","lat":-30.749707142857144,"lon":121.46121428571428},{"organisation_name":"headspace Broome","category":"Health Services & Primary Health Networks","suburb":"Broome","postcode":"6725","phone":"(08) 9193 7840","public_email":"","website_url":"https://headspace.org.au/headspace-centres/broome/","workshop_relevance":"High","lat":-18.071620000000003,"lon":122.20965},{"organisation_name":"headspace Albany","category":"Health Services & Primary Health Networks","suburb":"Albany","postcode":"6330","phone":"(08) 9892 1200","public_email":"","website_url":"https://headspace.org.au/headspace-centres/albany/","workshop_relevance":"High","lat":-35.005520000000004,"lon":117.83632},{"organisation_name":"Perth Speech Pathology","category":"Allied Health (OT, Speech, Psych)","suburb":"Subiaco","postcode":"6008","phone":"(08) 9388 3688","public_email":"info@perthspeech.com.au","website_url":"https://www.perthspeech.com.au","workshop_relevance":"High","lat":-31.952025,"lon":115.811225},{"organisation_name":"Integrated Kids (OT Perth)","category":"Allied Health (OT, Speech, Psych)","suburb":"Osborne Park","postcode":"6017","phone":"(08) 9204 1222","public_email":"admin@integratedkids.com.au","website_url":"https://www.integratedkids.com.au","workshop_relevance":"High","lat":-31.90563333333333,"lon":115.80816666666664},{"organisation_name":"Brightwater Care Group","category":"Allied Health (OT, Speech, Psych)","suburb":"Osborne Park","postcode":"6017","phone":"(08) 9202 2800","public_email":"info@brightwatergroup.com","website_url":"https://www.brightwatergroup.com","workshop_relevance":"High","lat":-31.90563333333333,"lon":115.80816666666664},{"organisation_name":"Neurodiverse Kids Perth","category":"Allied Health (OT, Speech, Psych)","suburb":"Joondalup","postcode":"6027","phone":"(08) 9301 1122","public_email":"hello@ndkperth.com.au","website_url":"https://www.ndkperth.com.au","workshop_relevance":"High","lat":-31.7619,"lon":115.7564875},{"organisation_name":"Bunbury Allied Health Services","category":"Allied Health (OT, Speech, Psych)","suburb":"Bunbury","postcode":"6230","phone":"(08) 9721 1155","public_email":"","website_url":"https://www.wacountryhealth.health.wa.gov.au","workshop_relevance":"High","lat":-33.35980769230769,"lon":115.65213846153846},{"organisation_name":"Geraldton Community Allied Health (WACHS)","category":"Allied Health (OT, Speech, Psych)","suburb":"Geraldton","postcode":"6530","phone":"(08) 9956 2222","public_email":"","website_url":"https://www.wacountryhealth.health.wa.gov.au","workshop_relevance":"High","lat":-28.756091304347823,"lon":114.5899695652174},{"organisation_name":"Catholic Care WA","category":"Faith-Based Community Organisations","suburb":"Perth","postcode":"6000","phone":"(08) 9220 0900","public_email":"info@catholiccarewa.com.au","website_url":"https://www.catholiccarewa.com.au","workshop_relevance":"High","lat":-31.9522,"lon":115.8614},{"organisation_name":"Baptist Care WA","category":"Faith-Based Community Organisations","suburb":"Belmont","postcode":"6104","phone":"(08) 9479 0777","public_email":"info@baptistcare.org.au","website_url":"https://www.baptistcare.org.au","workshop_relevance":"High","lat":-31.940033333333332,"lon":115.9315},{"organisation_name":"Lutheran Community Care WA","category":"Faith-Based Community Organisations","suburb":"Kelmscott","postcode":"6111","phone":"(08) 9390 8888","public_email":"admin@lutherancommunitycare.org.au","website_url":"https://www.lutherancommunitycare.org.au","workshop_relevance":"High","lat":-32.122820000000004,"lon":116.0719},{"organisation_name":"Islamic Council of WA","category":"Faith-Based Community Organisations","suburb":"Perth","postcode":"6000","phone":"(08) 9221 8299","public_email":"icwa@icwa.org.au","website_url":"https://www.icwa.org.au","workshop_relevance":"High","lat":-31.9522,"lon":115.8614},{"organisation_name":"Uniting Church in WA \u2013 Community Programs","category":"Faith-Based Community Organisations","suburb":"Perth","postcode":"6000","phone":"(08) 9260 9800","public_email":"admin@wa.uca.org.au","website_url":"https://wa.uca.org.au","workshop_relevance":"High","lat":-31.9522,"lon":115.8614},{"organisation_name":"Church of Christ Care (WA)","category":"Faith-Based Community Organisations","suburb":"Subiaco","postcode":"6008","phone":"(08) 9381 4000","public_email":"info@churchofchristcare.org.au","website_url":"https://www.churchofchristcare.org.au","workshop_relevance":"High","lat":-31.952025,"lon":115.811225},{"organisation_name":"Broome Christian Community (Kimberley Faith Network)","category":"Faith-Based Community Organisations","suburb":"Broome","postcode":"6725","phone":"(08) 9192 2222","public_email":"","website_url":"https://www.broome.wa.gov.au","workshop_relevance":"High","lat":-18.071620000000003,"lon":122.20965},{"organisation_name":"City of Greater Geraldton","category":"Councils & Libraries","suburb":"Geraldton","postcode":"6530","phone":"(08) 9956 6600","public_email":"city@cgg.wa.gov.au","website_url":"https://www.cgg.wa.gov.au","workshop_relevance":"High","lat":-28.756091304347823,"lon":114.5899695652174},{"organisation_name":"City of Kalgoorlie-Boulder","category":"Councils & Libraries","suburb":"Kalgoorlie","postcode":"6430","phone":"(08) 9021 9600","public_email":"enquiries@ckb.wa.gov.au","website_url":"https://www.kalgoorlie.wa.gov.au","workshop_relevance":"High","lat":-30.749707142857144,"lon":121.46121428571428},{"organisation_name":"City of Albany","category":"Councils & Libraries","suburb":"Albany","postcode":"6330","phone":"(08) 9841 9333","public_email":"enquiries@albany.wa.gov.au","website_url":"https://www.albany.wa.gov.au","workshop_relevance":"High","lat":-35.005520000000004,"lon":117.83632},{"organisation_name":"Shire of Broome","category":"Councils & Libraries","suburb":"Broome","postcode":"6725","phone":"(08) 9191 3456","public_email":"shire@broome.wa.gov.au","website_url":"https://www.broome.wa.gov.au","workshop_relevance":"High","lat":-18.071620000000003,"lon":122.20965},{"organisation_name":"City of Bunbury","category":"Councils & Libraries","suburb":"Bunbury","postcode":"6230","phone":"(08) 9792 7000","public_email":"admin@bunbury.wa.gov.au","website_url":"https://www.bunbury.wa.gov.au","workshop_relevance":"High","lat":-33.35980769230769,"lon":115.65213846153846},{"organisation_name":"Albany Regional Library","category":"Councils & Libraries","suburb":"Albany","postcode":"6330","phone":"(08) 9841 9415","public_email":"","website_url":"https://www.albany.wa.gov.au/library","workshop_relevance":"High","lat":-35.005520000000004,"lon":117.83632},{"organisation_name":"Albany Community Hub","category":"Community Centres & Neighbourhood Houses","suburb":"Albany","postcode":"6330","phone":"(08) 9845 5888","public_email":"info@albanyhub.org.au","website_url":"https://www.albanyhub.org.au","workshop_relevance":"High","lat":-35.005520000000004,"lon":117.83632},{"organisation_name":"Broome Community Resource Centre","category":"Community Centres & Neighbourhood Houses","suburb":"Broome","postcode":"6725","phone":"(08) 9193 6300","public_email":"info@broomecrc.org.au","website_url":"https://www.broomecrc.org.au","workshop_relevance":"High","lat":-18.071620000000003,"lon":122.20965},{"organisation_name":"Kalgoorlie Community Services Hub","category":"Community Centres & Neighbourhood Houses","suburb":"Kalgoorlie","postcode":"6430","phone":"(08) 9021 2599","public_email":"info@kalboulder.org.au","website_url":"https://www.kalgoorlie.wa.gov.au","workshop_relevance":"High","lat":-30.749707142857144,"lon":121.46121428571428},{"organisation_name":"Kimberley Aboriginal Medical Services (KAMS)","category":"Aboriginal & Torres Strait Islander Services","suburb":"Broome","postcode":"6725","phone":"(08) 9194 3200","public_email":"admin@kams.org.au","website_url":"https://www.kams.org.au","workshop_relevance":"High","lat":-18.071620000000003,"lon":122.20965},{"organisation_name":"Bega Garnbirringu Health Services (Kalgoorlie)","category":"Aboriginal & Torres Strait Islander Services","suburb":"Kalgoorlie","postcode":"6430","phone":"(08) 9022 5500","public_email":"admin@bega-garnbirringu.com.au","website_url":"https://www.bega-garnbirringu.com.au","workshop_relevance":"High","lat":-30.749707142857144,"lon":121.46121428571428},{"organisation_name":"Midwest Aboriginal Community Services (Geraldton)","category":"Aboriginal & Torres Strait Islander Services","suburb":"Geraldton","postcode":"6530","phone":"(08) 9964 3311","public_email":"info@macs-geraldton.org.au","website_url":"https://www.macs-geraldton.org.au","workshop_relevance":"High","lat":-28.756091304347823,"lon":114.5899695652174},{"organisation_name":"Karingal St Laurence (WA)","category":"Disability & NDIS Services","suburb":"Fremantle","postcode":"6160","phone":"(08) 9430 5555","public_email":"enquiry@stksl.org.au","website_url":"https://www.stksl.org.au","workshop_relevance":"High","lat":-32.0563,"lon":115.7456},{"organisation_name":"Disability Services Commission WA \u2013 Regional (Geraldton)","category":"Disability & NDIS Services","suburb":"Geraldton","postcode":"6530","phone":"(08) 9956 1188","public_email":"","website_url":"https://www.disability.wa.gov.au","workshop_relevance":"High","lat":-28.756091304347823,"lon":114.5899695652174},{"organisation_name":"Kimberley Therapy Services (Broome)","category":"Disability & NDIS Services","suburb":"Broome","postcode":"6725","phone":"(08) 9192 1533","public_email":"admin@kimberleytherapy.com.au","website_url":"https://www.kimberleytherapy.com.au","workshop_relevance":"High","lat":-18.071620000000003,"lon":122.20965},{"organisation_name":"Great Southern Community Services (Albany)","category":"NGOs/Charities (family, disability, mental health)","suburb":"Albany","postcode":"6330","phone":"(08) 9841 1999","public_email":"info@gscs.org.au","website_url":"https://www.gscs.org.au","workshop_relevance":"High","lat":-35.005520000000004,"lon":117.83632},{"organisation_name":"Multicultural Communities of WA \u2013 Bunbury","category":"Multicultural & Settlement Services","suburb":"Bunbury","postcode":"6230","phone":"(08) 9721 4400","public_email":"bunbury@mcwa.org.au","website_url":"https://www.mcwa.org.au","workshop_relevance":"High","lat":-33.35980769230769,"lon":115.65213846153846},{"organisation_name":"Carers WA \u2013 Geraldton Regional Office","category":"Parent/Carer Support Organisations","suburb":"Geraldton","postcode":"6530","phone":"(08) 9964 2444","public_email":"geraldton@carerswa.com.au","website_url":"https://www.carerswa.com.au","workshop_relevance":"High","lat":-28.756091304347823,"lon":114.5899695652174}]